{"geocoded_waypoints":[{"geocoder_status":"OK","place_id":"ChIJ0ZlW8mrkrIkRqFcuit26Zxc","types":["premise"]},{"geocoder_status":"OK","place_id":"ChIJSdJVqGzkrIkR6OcotHQ_q_s","types":["street_address"]},{"geocoder_status":"OK","place_id":"ChIJEaUM62zkrIkRLep1ItF680Q","types":["bar","establishment","food","meal_takeaway","point_of_interest","restaurant"]},{"geocoder_status":"OK","place_id":"ChIJH8G1W2zkrIkRnZqY8IFqEp0","types":["premise"]}],"routes":[{"bounds":{"northeast":{"lat":35.9934495,"lng":-78.9028501},"southwest":{"lat":35.9865939,"lng":-78.9066062}},"copyrights":"Map data ©2020","legs":[{"distance":{"text":"0.5 mi","value":781},"duration":{"text":"10 mins","value":595},"end_address":"1 Jackie Robinson Dr, Durham, NC 27701, USA","end_location":{"lat":35.9915108,"lng":-78.9054797},"start_address":"112 Hillside Ave, Durham, NC 27707, USA","start_location":{"lat":35.987164,"lng":-78.9038468},"steps":[{"distance":{"text":"0.1 mi","value":204},"duration":{"text":"2 mins","value":141},"end_location":{"lat":35.9865939,"lng":-78.9059977},"html_instructions":"Head <b>west</b> on <b>Hillside Ave</b> toward <b>South St</b>","polyline":{"points":"wvszE`|q`NBRTrAVrATrAHh@H`@Lr@F\\"},"start_location":{"lat":35.987164,"lng":-78.9038468},"travel_mode":"WALKING"},{"distance":{"text":"318 ft","value":97},"duration":{"text":"1 min","value":66},"end_location":{"lat":35.9874303,"lng":-78.9064653},"html_instructions":"Turn <b>right</b> onto <b>South St</b>","maneuver":"turn-right","polyline":{"points":"esszEnir`Nc@V[RMFQHSHOFKBE@QF"},"start_location":{"lat":35.9865939,"lng":-78.9059977},"travel_mode":"WALKING"},{"distance":{"text":"0.3 mi","value":480},"duration":{"text":"6 mins","value":388},"end_location":{"lat":35.9915108,"lng":-78.9054797},"html_instructions":"Continue onto <b>Blackwell St</b>","polyline":{"points":"mxszEllr`NSDE?YDK@g@D_@BE?M@M?U?e@@_@CUAQAWE_@Es@GMCcAOSEUGg@Oa@MQIi@Ua@SSKQKEEIEUOYSKI"},"start_location":{"lat":35.9874303,"lng":-78.9064653},"travel_mode":"WALKING"}],"traffic_speed_entry":[],"via_waypoint":[]},{"distance":{"text":"262 ft","value":80},"duration":{"text":"1 min","value":53},"end_address":"410 Blackwell St, Durham, NC 27701, USA","end_location":{"lat":35.9915559,"lng":-78.9061638},"start_address":"1 Jackie Robinson Dr, Durham, NC 27701, USA","start_location":{"lat":35.9915108,"lng":-78.9054797},"steps":[{"distance":{"text":"82 ft","value":25},"duration":{"text":"1 min","value":16},"end_location":{"lat":35.9913206,"lng":-78.9056251},"html_instructions":"Head <b>southwest</b> on <b>Blackwell St</b> toward <b>Jackie Robinson Dr</b>/<wbr/><b>N Service Rd W</b>","polyline":{"points":"}qtzEffr`NJHXR"},"start_location":{"lat":35.9915108,"lng":-78.9054797},"travel_mode":"WALKING"},{"distance":{"text":"180 ft","value":55},"duration":{"text":"1 min","value":37},"end_location":{"lat":35.9915559,"lng":-78.9061638},"html_instructions":"Turn <b>right</b> onto <b>Jackie Robinson Dr</b>/<wbr/><b>N Service Rd W</b><div style=\"font-size:0.9em\">Destination will be on the right</div>","maneuver":"turn-right","polyline":{"points":"wptzEdgr`NIZWr@MX"},"start_location":{"lat":35.9913206,"lng":-78.9056251},"travel_mode":"WALKING"}],"traffic_speed_entry":[],"via_waypoint":[]},{"distance":{"text":"0.3 mi","value":476},"duration":{"text":"6 mins","value":383},"end_address":"345 Blackwell St, Durham, NC 27701, USA","end_location":{"lat":35.9934495,"lng":-78.9028501},"start_address":"410 Blackwell St, Durham, NC 27701, USA","start_location":{"lat":35.9915559,"lng":-78.9061638},"steps":[{"distance":{"text":"180 ft","value":55},"duration":{"text":"1 min","value":44},"end_location":{"lat":35.9913206,"lng":-78.9056251},"html_instructions":"Head <b>southeast</b> on <b>Jackie Robinson Dr</b>/<wbr/><b>N Service Rd W</b> toward <b>American Tobacco Trail</b>","polyline":{"points":"grtzEnjr`NLYVs@H["},"start_location":{"lat":35.9915559,"lng":-78.9061638},"travel_mode":"WALKING"},{"distance":{"text":"0.2 mi","value":256},"duration":{"text":"3 mins","value":203},"end_location":{"lat":35.9932405,"lng":-78.90405700000001},"html_instructions":"Turn <b>left</b> onto <b>Blackwell St</b>","maneuver":"turn-left","polyline":{"points":"wptzEdgr`NYSc@]e@[IGYSWScAy@sAeAgA{@"},"start_location":{"lat":35.9913206,"lng":-78.9056251},"travel_mode":"WALKING"},{"distance":{"text":"217 ft","value":66},"duration":{"text":"1 min","value":59},"end_location":{"lat":35.9928993,"lng":-78.9034586},"html_instructions":"Turn <b>right</b>","maneuver":"turn-right","polyline":{"points":"w|tzEj}q`NXo@NYXm@"},"start_location":{"lat":35.9932405,"lng":-78.90405700000001},"travel_mode":"WALKING"},{"distance":{"text":"171 ft","value":52},"duration":{"text":"1 min","value":43},"end_location":{"lat":35.9930586,"lng":-78.9030485},"html_instructions":"Turn <b>left</b>","maneuver":"turn-left","polyline":{"points":"sztzEryq`NIIGGIEKGCQ?G?EBIFG"},"start_location":{"lat":35.9928993,"lng":-78.9034586},"travel_mode":"WALKING"},{"distance":{"text":"154 ft","value":47},"duration":{"text":"1 min","value":34},"end_location":{"lat":35.9934495,"lng":-78.9028501},"html_instructions":"Turn <b>left</b>","maneuver":"turn-left","polyline":{"points":"s{tzE`wq`Nq@[[K"},"start_location":{"lat":35.9930586,"lng":-78.9030485},"travel_mode":"WALKING"}],"traffic_speed_entry":[],"via_waypoint":[]}],"overview_polyline":{"points":"wvszE`|q`NpBlL_Aj@_@Pu@Ve@L_@DyAJwAB_BMsAMqASi@MiA]qB_Aw@g@e@]d@\\a@nAMXLY`@oA}@q@aBkAwC_CgA{@Xo@h@gAQQUMCYBOFGq@[[K"},"summary":"Hillside Ave and Blackwell St","warnings":["Walking directions are in beta. Use caution – This route may be missing sidewalks or pedestrian paths."],"waypoint_order":[0,1]}],"status":"OK"}